{
  "name" : "-[TestRailDVR testAllStations]",
  "interactions" : [
    {
      "request" : {
        "method" : "GET",
        "url" : "https:\/\/api.wmata.com\/Rail.svc\/json\/jStations?",
        "headers" : {
          "api_key" : "9e38c3eab34c4e6c990828002828f5ed"
        }
      },
      "recorded_at" : 1639349448.6248989,
      "response" : {
        "headers" : {
          "Content-Length" : "5998",
          "Cache-Control" : "no-cache",
          "X-Powered-By" : "ASP.NET",
          "Content-Type" : "application\/json; charset=utf-8",
          "Vary" : "Accept-Encoding",
          "X-AspNet-Version" : "4.0.30319",
          "Date" : "Sun, 12 Dec 2021 22:50:47 GMT",
          "Content-Encoding" : "gzip",
          "Arr-Disable-Session-Affinity" : "True",
          "Expires" : "-1",
          "Pragma" : "no-cache"
        },
        "url" : "https:\/\/api.wmata.com\/Rail.svc\/json\/jStations?",
        "body" : {
          "Stations" : [
            {
              "LineCode3" : null,
              "Code" : "A01",
              "LineCode1" : "RD",
              "Lat" : 38.898302999999999,
              "StationTogether1" : "C01",
              "Lon" : -77.028098999999997,
              "LineCode4" : null,
              "LineCode2" : null,
              "Name" : "Metro Center",
              "StationTogether2" : "",
              "Address" : {
                "Street" : "607 13th St. NW",
                "Zip" : "20005",
                "City" : "Washington",
                "State" : "DC"
              }
            },
            {
              "LineCode3" : null,
              "Code" : "A02",
              "LineCode1" : "RD",
              "Lat" : 38.903191999999997,
              "StationTogether1" : "",
              "Lon" : -77.039766,
              "LineCode4" : null,
              "LineCode2" : null,
              "Name" : "Farragut North",
              "StationTogether2" : "",
              "Address" : {
                "Street" : "1001 Connecticut Avenue NW",
                "Zip" : "20036",
                "City" : "Washington",
                "State" : "DC"
              }
            },
            {
              "LineCode3" : null,
              "Code" : "A03",
              "LineCode1" : "RD",
              "Lat" : 38.909498999999997,
              "StationTogether1" : "",
              "Lon" : -77.043620000000004,
              "LineCode4" : null,
              "LineCode2" : null,
              "Name" : "Dupont Circle",
              "StationTogether2" : "",
              "Address" : {
                "Street" : "1525 20th St. NW",
                "Zip" : "20036",
                "City" : "Washington",
                "State" : "DC"
              }
            },
            {
              "LineCode3" : null,
              "Code" : "A04",
              "LineCode1" : "RD",
              "Lat" : 38.924999,
              "StationTogether1" : "",
              "Lon" : -77.052648000000005,
              "LineCode4" : null,
              "LineCode2" : null,
              "Name" : "Woodley Park-Zoo\/Adams Morgan",
              "StationTogether2" : "",
              "Address" : {
                "Street" : "2700 Connecticut Ave., NW",
                "Zip" : "20008",
                "City" : "Washington",
                "State" : "DC"
              }
            },
            {
              "LineCode3" : null,
              "Code" : "A05",
              "LineCode1" : "RD",
              "Lat" : 38.934702999999999,
              "StationTogether1" : "",
              "Lon" : -77.058226000000005,
              "LineCode4" : null,
              "LineCode2" : null,
              "Name" : "Cleveland Park",
              "StationTogether2" : "",
              "Address" : {
                "Street" : "3599 Connecticut Avenue NW",
                "Zip" : "20008",
                "City" : "Washington",
                "State" : "DC"
              }
            },
            {
              "LineCode3" : null,
              "Code" : "A06",
              "LineCode1" : "RD",
              "Lat" : 38.943620000000003,
              "StationTogether1" : "",
              "Lon" : -77.063511000000005,
              "LineCode4" : null,
              "LineCode2" : null,
              "Name" : "Van Ness-UDC",
              "StationTogether2" : "",
              "Address" : {
                "Street" : "4200 Connecticut Avenue NW",
                "Zip" : "20008",
                "City" : "Washington",
                "State" : "DC"
              }
            },
            {
              "LineCode3" : null,
              "Code" : "A07",
              "LineCode1" : "RD",
              "Lat" : 38.947808000000002,
              "StationTogether1" : "",
              "Lon" : -77.079615000000004,
              "LineCode4" : null,
              "LineCode2" : null,
              "Name" : "Tenleytown-AU",
              "StationTogether2" : "",
              "Address" : {
                "Street" : "4501 Wisconsin Avenue NW",
                "Zip" : "20016",
                "City" : "Washington",
                "State" : "DC"
              }
            },
            {
              "LineCode3" : null,
              "Code" : "A08",
              "LineCode1" : "RD",
              "Lat" : 38.960743999999998,
              "StationTogether1" : "",
              "Lon" : -77.085969000000006,
              "LineCode4" : null,
              "LineCode2" : null,
              "Name" : "Friendship Heights",
              "StationTogether2" : "",
              "Address" : {
                "Street" : "5337 Wisconsin Avenue NW",
                "Zip" : "20015",
                "City" : "Washington",
                "State" : "DC"
              }
            },
            {
              "LineCode3" : null,
              "Code" : "A09",
              "LineCode1" : "RD",
              "Lat" : 38.984282,
              "StationTogether1" : "",
              "Lon" : -77.094431,
              "LineCode4" : null,
              "LineCode2" : null,
              "Name" : "Bethesda",
              "StationTogether2" : "",
              "Address" : {
                "Street" : "7450 Wisconsin Avenue",
                "Zip" : "20814",
                "City" : "Bethesda",
                "State" : "MD"
              }
            },
            {
              "LineCode3" : null,
              "Code" : "A10",
              "LineCode1" : "RD",
              "Lat" : 38.999946999999999,
              "StationTogether1" : "",
              "Lon" : -77.097252999999995,
              "LineCode4" : null,
              "LineCode2" : null,
              "Name" : "Medical Center",
              "StationTogether2" : "",
              "Address" : {
                "Street" : "8810 Rockville Pike",
                "Zip" : "20814",
                "City" : "Bethesda",
                "State" : "MD"
              }
            },
            {
              "LineCode3" : null,
              "Code" : "A11",
              "LineCode1" : "RD",
              "Lat" : 39.029158000000002,
              "StationTogether1" : "",
              "Lon" : -77.104150000000004,
              "LineCode4" : null,
              "LineCode2" : null,
              "Name" : "Grosvenor-Strathmore",
              "StationTogether2" : "",
              "Address" : {
                "Street" : "10300 Rockville Pike",
                "Zip" : "20852",
                "City" : "Bethesda",
                "State" : "MD"
              }
            },
            {
              "LineCode3" : null,
              "Code" : "A12",
              "LineCode1" : "RD",
              "Lat" : 39.048043,
              "StationTogether1" : "",
              "Lon" : -77.113130999999996,
              "LineCode4" : null,
              "LineCode2" : null,
              "Name" : "White Flint",
              "StationTogether2" : "",
              "Address" : {
                "Street" : "5500 Marinelli Road",
                "Zip" : "20852",
                "City" : "Rockville",
                "State" : "MD"
              }
            },
            {
              "LineCode3" : null,
              "Code" : "A13",
              "LineCode1" : "RD",
              "Lat" : 39.062359000000001,
              "StationTogether1" : "",
              "Lon" : -77.121112999999994,
              "LineCode4" : null,
              "LineCode2" : null,
              "Name" : "Twinbrook",
              "StationTogether2" : "",
              "Address" : {
                "Street" : "1600 Chapman Avenue",
                "Zip" : "20852",
                "City" : "Rockville",
                "State" : "MD"
              }
            },
            {
              "LineCode3" : null,
              "Code" : "A14",
              "LineCode1" : "RD",
              "Lat" : 39.084215,
              "StationTogether1" : "",
              "Lon" : -77.146423999999996,
              "LineCode4" : null,
              "LineCode2" : null,
              "Name" : "Rockville",
              "StationTogether2" : "",
              "Address" : {
                "Street" : "251 Hungerford Drive",
                "Zip" : "20850",
                "City" : "Rockville",
                "State" : "MD"
              }
            },
            {
              "LineCode3" : null,
              "Code" : "A15",
              "LineCode1" : "RD",
              "Lat" : 39.119819,
              "StationTogether1" : "",
              "Lon" : -77.164921000000007,
              "LineCode4" : null,
              "LineCode2" : null,
              "Name" : "Shady Grove",
              "StationTogether2" : "",
              "Address" : {
                "Street" : "15903 Somerville Drive",
                "Zip" : "20855",
                "City" : "Rockville",
                "State" : "MD"
              }
            },
            {
              "LineCode3" : null,
              "Code" : "B01",
              "LineCode1" : "RD",
              "Lat" : 38.898339999999997,
              "StationTogether1" : "F01",
              "Lon" : -77.021850999999998,
              "LineCode4" : null,
              "LineCode2" : null,
              "Name" : "Gallery Pl-Chinatown",
              "StationTogether2" : "",
              "Address" : {
                "Street" : "630 H St. NW",
                "Zip" : "20001",
                "City" : "Washington",
                "State" : "DC"
              }
            },
            {
              "LineCode3" : null,
              "Code" : "B02",
              "LineCode1" : "RD",
              "Lat" : 38.896084000000002,
              "StationTogether1" : "",
              "Lon" : -77.016643000000002,
              "LineCode4" : null,
              "LineCode2" : null,
              "Name" : "Judiciary Square",
              "StationTogether2" : "",
              "Address" : {
                "Street" : "450 F Street NW",
                "Zip" : "20001",
                "City" : "Washington",
                "State" : "DC"
              }
            },
            {
              "LineCode3" : null,
              "Code" : "B03",
              "LineCode1" : "RD",
              "Lat" : 38.897722999999999,
              "StationTogether1" : "",
              "Lon" : -77.006744999999995,
              "LineCode4" : null,
              "LineCode2" : null,
              "Name" : "Union Station",
              "StationTogether2" : "",
              "Address" : {
                "Street" : "701 First St. NE",
                "Zip" : "20002",
                "City" : "Washington",
                "State" : "DC"
              }
            },
            {
              "LineCode3" : null,
              "Code" : "B04",
              "LineCode1" : "RD",
              "Lat" : 38.920741,
              "StationTogether1" : "",
              "Lon" : -76.995984000000007,
              "LineCode4" : null,
              "LineCode2" : null,
              "Name" : "Rhode Island Ave-Brentwood",
              "StationTogether2" : "",
              "Address" : {
                "Street" : "919 Rhode Island Avenue NE",
                "Zip" : "20018",
                "City" : "Washington",
                "State" : "DC"
              }
            },
            {
              "LineCode3" : null,
              "Code" : "B05",
              "LineCode1" : "RD",
              "Lat" : 38.933233999999999,
              "StationTogether1" : "",
              "Lon" : -76.994544000000005,
              "LineCode4" : null,
              "LineCode2" : null,
              "Name" : "Brookland-CUA",
              "StationTogether2" : "",
              "Address" : {
                "Street" : "801 Michigan Avenue NE",
                "Zip" : "20017",
                "City" : "Washington",
                "State" : "DC"
              }
            },
            {
              "LineCode3" : null,
              "Code" : "B06",
              "LineCode1" : "RD",
              "Lat" : 38.951777,
              "StationTogether1" : "E06",
              "Lon" : -77.002173999999997,
              "LineCode4" : null,
              "LineCode2" : null,
              "Name" : "Fort Totten",
              "StationTogether2" : "",
              "Address" : {
                "Street" : "550 Galloway Street NE",
                "Zip" : "20011",
                "City" : "Washington",
                "State" : "DC"
              }
            },
            {
              "LineCode3" : null,
              "Code" : "B07",
              "LineCode1" : "RD",
              "Lat" : 38.975532000000001,
              "StationTogether1" : "",
              "Lon" : -77.017833999999993,
              "LineCode4" : null,
              "LineCode2" : null,
              "Name" : "Takoma",
              "StationTogether2" : "",
              "Address" : {
                "Street" : "327 Cedar Street NW",
                "Zip" : "20012",
                "City" : "Washington",
                "State" : "DC"
              }
            },
            {
              "LineCode3" : null,
              "Code" : "B08",
              "LineCode1" : "RD",
              "Lat" : 38.993841000000003,
              "StationTogether1" : "",
              "Lon" : -77.031321000000005,
              "LineCode4" : null,
              "LineCode2" : null,
              "Name" : "Silver Spring",
              "StationTogether2" : "",
              "Address" : {
                "Street" : "8400 Colesville Road",
                "Zip" : "20910",
                "City" : "Silver Spring",
                "State" : "MD"
              }
            },
            {
              "LineCode3" : null,
              "Code" : "B09",
              "LineCode1" : "RD",
              "Lat" : 39.015413000000002,
              "StationTogether1" : "",
              "Lon" : -77.042952999999997,
              "LineCode4" : null,
              "LineCode2" : null,
              "Name" : "Forest Glen",
              "StationTogether2" : "",
              "Address" : {
                "Street" : "9730 Georgia Avenue",
                "Zip" : "20910",
                "City" : "Forest Glen",
                "State" : "MD"
              }
            },
            {
              "LineCode3" : null,
              "Code" : "B10",
              "LineCode1" : "RD",
              "Lat" : 39.038558000000002,
              "StationTogether1" : "",
              "Lon" : -77.051097999999996,
              "LineCode4" : null,
              "LineCode2" : null,
              "Name" : "Wheaton",
              "StationTogether2" : "",
              "Address" : {
                "Street" : "11171 Georgia Avenue",
                "Zip" : "20902",
                "City" : "Silver Spring",
                "State" : "MD"
              }
            },
            {
              "LineCode3" : null,
              "Code" : "B11",
              "LineCode1" : "RD",
              "Lat" : 39.061712999999997,
              "StationTogether1" : "",
              "Lon" : -77.05341,
              "LineCode4" : null,
              "LineCode2" : null,
              "Name" : "Glenmont",
              "StationTogether2" : "",
              "Address" : {
                "Street" : "12501 Georgia Avenue",
                "Zip" : "20906",
                "City" : "Silver Spring",
                "State" : "MD"
              }
            },
            {
              "LineCode3" : null,
              "Code" : "B35",
              "LineCode1" : "RD",
              "Lat" : 38.907406999999999,
              "StationTogether1" : "",
              "Lon" : -77.002960999999999,
              "LineCode4" : null,
              "LineCode2" : null,
              "Name" : "NoMa-Gallaudet U",
              "StationTogether2" : "",
              "Address" : {
                "Street" : "200 Florida Ave N.E.",
                "Zip" : "20002",
                "City" : "Washington",
                "State" : "DC"
              }
            },
            {
              "LineCode3" : "SV",
              "Code" : "C01",
              "LineCode1" : "BL",
              "Lat" : 38.898302999999999,
              "StationTogether1" : "A01",
              "Lon" : -77.028098999999997,
              "LineCode4" : null,
              "LineCode2" : "OR",
              "Name" : "Metro Center",
              "StationTogether2" : "",
              "Address" : {
                "Street" : "607 13th St. NW",
                "Zip" : "20005",
                "City" : "Washington",
                "State" : "DC"
              }
            },
            {
              "LineCode3" : "SV",
              "Code" : "C02",
              "LineCode1" : "BL",
              "Lat" : 38.901316000000001,
              "StationTogether1" : "",
              "Lon" : -77.033652000000004,
              "LineCode4" : null,
              "LineCode2" : "OR",
              "Name" : "McPherson Square",
              "StationTogether2" : "",
              "Address" : {
                "Street" : "1400 I St. NW",
                "Zip" : "20005",
                "City" : "Washington",
                "State" : "DC"
              }
            },
            {
              "LineCode3" : "SV",
              "Code" : "C03",
              "LineCode1" : "BL",
              "Lat" : 38.901311,
              "StationTogether1" : "",
              "Lon" : -77.039810000000003,
              "LineCode4" : null,
              "LineCode2" : "OR",
              "Name" : "Farragut West",
              "StationTogether2" : "",
              "Address" : {
                "Street" : "900 18th St. NW",
                "Zip" : "20006",
                "City" : "Washington",
                "State" : "DC"
              }
            },
            {
              "LineCode3" : "SV",
              "Code" : "C04",
              "LineCode1" : "BL",
              "Lat" : 38.900599,
              "StationTogether1" : "",
              "Lon" : -77.050273000000004,
              "LineCode4" : null,
              "LineCode2" : "OR",
              "Name" : "Foggy Bottom-GWU",
              "StationTogether2" : "",
              "Address" : {
                "Street" : "2301 I St. NW",
                "Zip" : "20037",
                "City" : "Washington",
                "State" : "DC"
              }
            },
            {
              "LineCode3" : "SV",
              "Code" : "C05",
              "LineCode1" : "BL",
              "Lat" : 38.896594999999998,
              "StationTogether1" : "",
              "Lon" : -77.071460000000002,
              "LineCode4" : null,
              "LineCode2" : "OR",
              "Name" : "Rosslyn",
              "StationTogether2" : "",
              "Address" : {
                "Street" : "1850 N. Moore Street",
                "Zip" : "22209",
                "City" : "Arlington",
                "State" : "VA"
              }
            },
            {
              "LineCode3" : null,
              "Code" : "C06",
              "LineCode1" : "BL",
              "Lat" : 38.884574000000001,
              "StationTogether1" : "",
              "Lon" : -77.063108,
              "LineCode4" : null,
              "LineCode2" : null,
              "Name" : "Arlington Cemetery",
              "StationTogether2" : "",
              "Address" : {
                "Street" : "1000 North Memorial Drive",
                "Zip" : "22211",
                "City" : "Arlington",
                "State" : "VA"
              }
            },
            {
              "LineCode3" : null,
              "Code" : "C07",
              "LineCode1" : "BL",
              "Lat" : 38.869349,
              "StationTogether1" : "",
              "Lon" : -77.054012999999998,
              "LineCode4" : null,
              "LineCode2" : "YL",
              "Name" : "Pentagon",
              "StationTogether2" : "",
              "Address" : {
                "Street" : "2 South Rotary Road",
                "Zip" : "22202",
                "City" : "Arlington",
                "State" : "VA"
              }
            },
            {
              "LineCode3" : null,
              "Code" : "C08",
              "LineCode1" : "BL",
              "Lat" : 38.863045,
              "StationTogether1" : "",
              "Lon" : -77.059506999999996,
              "LineCode4" : null,
              "LineCode2" : "YL",
              "Name" : "Pentagon City",
              "StationTogether2" : "",
              "Address" : {
                "Street" : "1250 South Hayes St.",
                "Zip" : "22202",
                "City" : "Arlington",
                "State" : "VA"
              }
            },
            {
              "LineCode3" : null,
              "Code" : "C09",
              "LineCode1" : "BL",
              "Lat" : 38.857790000000001,
              "StationTogether1" : "",
              "Lon" : -77.050589000000002,
              "LineCode4" : null,
              "LineCode2" : "YL",
              "Name" : "Crystal City",
              "StationTogether2" : "",
              "Address" : {
                "Street" : "1750 South Clark St.",
                "Zip" : "22202",
                "City" : "Arlington",
                "State" : "VA"
              }
            },
            {
              "LineCode3" : null,
              "Code" : "C10",
              "LineCode1" : "BL",
              "Lat" : 38.852984999999997,
              "StationTogether1" : "",
              "Lon" : -77.043805000000006,
              "LineCode4" : null,
              "LineCode2" : "YL",
              "Name" : "Ronald Reagan Washington National Airport",
              "StationTogether2" : "",
              "Address" : {
                "Street" : "2400 S. Smith Blvd.",
                "Zip" : "22202",
                "City" : "Arlington",
                "State" : "VA"
              }
            },
            {
              "LineCode3" : null,
              "Code" : "C12",
              "LineCode1" : "BL",
              "Lat" : 38.814008999999999,
              "StationTogether1" : "",
              "Lon" : -77.053763000000004,
              "LineCode4" : null,
              "LineCode2" : "YL",
              "Name" : "Braddock Road",
              "StationTogether2" : "",
              "Address" : {
                "Street" : "700 N. West St.",
                "Zip" : "22301",
                "City" : "Alexandria",
                "State" : "VA"
              }
            },
            {
              "LineCode3" : null,
              "Code" : "C13",
              "LineCode1" : "BL",
              "Lat" : 38.806474000000001,
              "StationTogether1" : "",
              "Lon" : -77.061115000000001,
              "LineCode4" : null,
              "LineCode2" : "YL",
              "Name" : "King St-Old Town",
              "StationTogether2" : "",
              "Address" : {
                "Street" : "1900 King Street",
                "Zip" : "22301",
                "City" : "Alexandria",
                "State" : "VA"
              }
            },
            {
              "LineCode3" : null,
              "Code" : "C14",
              "LineCode1" : "YL",
              "Lat" : 38.800313000000003,
              "StationTogether1" : "",
              "Lon" : -77.071173000000002,
              "LineCode4" : null,
              "LineCode2" : null,
              "Name" : "Eisenhower Avenue",
              "StationTogether2" : "",
              "Address" : {
                "Street" : "2400 Eisenhower Avenue",
                "Zip" : "22314",
                "City" : "Alexandria",
                "State" : "VA"
              }
            },
            {
              "LineCode3" : null,
              "Code" : "C15",
              "LineCode1" : "YL",
              "Lat" : 38.793841,
              "StationTogether1" : "",
              "Lon" : -77.075300999999996,
              "LineCode4" : null,
              "LineCode2" : null,
              "Name" : "Huntington",
              "StationTogether2" : "",
              "Address" : {
                "Street" : "2501 Huntington Ave",
                "Zip" : "22303",
                "City" : "Huntington",
                "State" : "VA"
              }
            },
            {
              "LineCode3" : "SV",
              "Code" : "D01",
              "LineCode1" : "BL",
              "Lat" : 38.893757000000001,
              "StationTogether1" : "",
              "Lon" : -77.028217999999995,
              "LineCode4" : null,
              "LineCode2" : "OR",
              "Name" : "Federal Triangle",
              "StationTogether2" : "",
              "Address" : {
                "Street" : "302 12th St. NW",
                "Zip" : "20004",
                "City" : "Washington",
                "State" : "DC"
              }
            },
            {
              "LineCode3" : "SV",
              "Code" : "D02",
              "LineCode1" : "BL",
              "Lat" : 38.888021999999999,
              "StationTogether1" : "",
              "Lon" : -77.028232000000003,
              "LineCode4" : null,
              "LineCode2" : "OR",
              "Name" : "Smithsonian",
              "StationTogether2" : "",
              "Address" : {
                "Street" : "1200 Independence Avenue SW",
                "Zip" : "20004",
                "City" : "Washington",
                "State" : "DC"
              }
            },
            {
              "LineCode3" : "SV",
              "Code" : "D03",
              "LineCode1" : "BL",
              "Lat" : 38.884774999999998,
              "StationTogether1" : "F03",
              "Lon" : -77.021963999999997,
              "LineCode4" : null,
              "LineCode2" : "OR",
              "Name" : "L'Enfant Plaza",
              "StationTogether2" : "",
              "Address" : {
                "Street" : "600 Maryland Avenue SW",
                "Zip" : "20024",
                "City" : "Washington",
                "State" : "DC"
              }
            },
            {
              "LineCode3" : "SV",
              "Code" : "D04",
              "LineCode1" : "BL",
              "Lat" : 38.884957999999997,
              "StationTogether1" : "",
              "Lon" : -77.015860000000004,
              "LineCode4" : null,
              "LineCode2" : "OR",
              "Name" : "Federal Center SW",
              "StationTogether2" : "",
              "Address" : {
                "Street" : "401 3rd Street SW",
                "Zip" : "20024",
                "City" : "Washington",
                "State" : "DC"
              }
            },
            {
              "LineCode3" : "SV",
              "Code" : "D05",
              "LineCode1" : "BL",
              "Lat" : 38.884968000000001,
              "StationTogether1" : "",
              "Lon" : -77.005137000000005,
              "LineCode4" : null,
              "LineCode2" : "OR",
              "Name" : "Capitol South",
              "StationTogether2" : "",
              "Address" : {
                "Street" : "355 First Street SE",
                "Zip" : "20003",
                "City" : "Washington",
                "State" : "DC"
              }
            },
            {
              "LineCode3" : "SV",
              "Code" : "D06",
              "LineCode1" : "BL",
              "Lat" : 38.884124,
              "StationTogether1" : "",
              "Lon" : -76.995334,
              "LineCode4" : null,
              "LineCode2" : "OR",
              "Name" : "Eastern Market",
              "StationTogether2" : "",
              "Address" : {
                "Street" : "701 Pennsylvania Avenue SE",
                "Zip" : "20003",
                "City" : "Washington",
                "State" : "DC"
              }
            },
            {
              "LineCode3" : "SV",
              "Code" : "D07",
              "LineCode1" : "BL",
              "Lat" : 38.880840999999997,
              "StationTogether1" : "",
              "Lon" : -76.985720999999998,
              "LineCode4" : null,
              "LineCode2" : "OR",
              "Name" : "Potomac Ave",
              "StationTogether2" : "",
              "Address" : {
                "Street" : "700 14th Street SE",
                "Zip" : "20003",
                "City" : "Washington",
                "State" : "DC"
              }
            },
            {
              "LineCode3" : "SV",
              "Code" : "D08",
              "LineCode1" : "BL",
              "Lat" : 38.885939999999998,
              "StationTogether1" : "",
              "Lon" : -76.977485000000001,
              "LineCode4" : null,
              "LineCode2" : "OR",
              "Name" : "Stadium-Armory",
              "StationTogether2" : "",
              "Address" : {
                "Street" : "192 19th St. SE",
                "Zip" : "20003",
                "City" : "Washington",
                "State" : "DC"
              }
            },
            {
              "LineCode3" : null,
              "Code" : "D09",
              "LineCode1" : "OR",
              "Lat" : 38.898283999999997,
              "StationTogether1" : "",
              "Lon" : -76.948042000000001,
              "LineCode4" : null,
              "LineCode2" : null,
              "Name" : "Minnesota Ave",
              "StationTogether2" : "",
              "Address" : {
                "Street" : "4000 Minnesota Avenue NE",
                "Zip" : "20019",
                "City" : "Washington",
                "State" : "DC"
              }
            },
            {
              "LineCode3" : null,
              "Code" : "D10",
              "LineCode1" : "OR",
              "Lat" : 38.907733999999998,
              "StationTogether1" : "",
              "Lon" : -76.936177000000001,
              "LineCode4" : null,
              "LineCode2" : null,
              "Name" : "Deanwood",
              "StationTogether2" : "",
              "Address" : {
                "Street" : "4720 Minnesota Avenue NE",
                "Zip" : "20019",
                "City" : "Washington",
                "State" : "DC"
              }
            },
            {
              "LineCode3" : null,
              "Code" : "D11",
              "LineCode1" : "OR",
              "Lat" : 38.916519999999998,
              "StationTogether1" : "",
              "Lon" : -76.915426999999994,
              "LineCode4" : null,
              "LineCode2" : null,
              "Name" : "Cheverly",
              "StationTogether2" : "",
              "Address" : {
                "Street" : "5501 Columbia Park",
                "Zip" : "20785",
                "City" : "Cheverly",
                "State" : "MD"
              }
            },
            {
              "LineCode3" : null,
              "Code" : "D12",
              "LineCode1" : "OR",
              "Lat" : 38.934410999999997,
              "StationTogether1" : "",
              "Lon" : -76.890987999999993,
              "LineCode4" : null,
              "LineCode2" : null,
              "Name" : "Landover",
              "StationTogether2" : "",
              "Address" : {
                "Street" : "3000 Pennsy Drive",
                "Zip" : "20785",
                "City" : "Hyattsville",
                "State" : "MD"
              }
            },
            {
              "LineCode3" : null,
              "Code" : "D13",
              "LineCode1" : "OR",
              "Lat" : 38.947673999999999,
              "StationTogether1" : "",
              "Lon" : -76.872144000000006,
              "LineCode4" : null,
              "LineCode2" : null,
              "Name" : "New Carrollton",
              "StationTogether2" : "",
              "Address" : {
                "Street" : "4700 Garden City Drive",
                "Zip" : "20784",
                "City" : "New Carrollton",
                "State" : "MD"
              }
            },
            {
              "LineCode3" : null,
              "Code" : "E01",
              "LineCode1" : "GR",
              "Lat" : 38.905603999999997,
              "StationTogether1" : "",
              "Lon" : -77.022255999999999,
              "LineCode4" : null,
              "LineCode2" : "YL",
              "Name" : "Mt Vernon Sq 7th St-Convention Center",
              "StationTogether2" : "",
              "Address" : {
                "Street" : "700 M St. NW",
                "Zip" : "20001",
                "City" : "Washington",
                "State" : "DC"
              }
            },
            {
              "LineCode3" : null,
              "Code" : "E02",
              "LineCode1" : "GR",
              "Lat" : 38.912919000000002,
              "StationTogether1" : "",
              "Lon" : -77.022193999999999,
              "LineCode4" : null,
              "LineCode2" : "YL",
              "Name" : "Shaw-Howard U",
              "StationTogether2" : "",
              "Address" : {
                "Street" : "1701 8th St. NW",
                "Zip" : "20001",
                "City" : "Washington",
                "State" : "DC"
              }
            },
            {
              "LineCode3" : null,
              "Code" : "E03",
              "LineCode1" : "GR",
              "Lat" : 38.916488999999999,
              "StationTogether1" : "",
              "Lon" : -77.028937999999997,
              "LineCode4" : null,
              "LineCode2" : "YL",
              "Name" : "U Street\/African-Amer Civil War Memorial\/Cardozo",
              "StationTogether2" : "",
              "Address" : {
                "Street" : "1240 U Street NW",
                "Zip" : "20009",
                "City" : "Washington",
                "State" : "DC"
              }
            },
            {
              "LineCode3" : null,
              "Code" : "E04",
              "LineCode1" : "GR",
              "Lat" : 38.928671999999999,
              "StationTogether1" : "",
              "Lon" : -77.032775000000001,
              "LineCode4" : null,
              "LineCode2" : "YL",
              "Name" : "Columbia Heights",
              "StationTogether2" : "",
              "Address" : {
                "Street" : "3030 14th St. NW",
                "Zip" : "20009",
                "City" : "Washington",
                "State" : "DC"
              }
            },
            {
              "LineCode3" : null,
              "Code" : "E05",
              "LineCode1" : "GR",
              "Lat" : 38.936076999999997,
              "StationTogether1" : "",
              "Lon" : -77.024727999999996,
              "LineCode4" : null,
              "LineCode2" : "YL",
              "Name" : "Georgia Ave-Petworth",
              "StationTogether2" : "",
              "Address" : {
                "Street" : "3700 Georgia Avenue NW",
                "Zip" : "20010",
                "City" : "Washington",
                "State" : "DC"
              }
            },
            {
              "LineCode3" : null,
              "Code" : "E06",
              "LineCode1" : "GR",
              "Lat" : 38.951777,
              "StationTogether1" : "B06",
              "Lon" : -77.002173999999997,
              "LineCode4" : null,
              "LineCode2" : "YL",
              "Name" : "Fort Totten",
              "StationTogether2" : "",
              "Address" : {
                "Street" : "550 Galloway Street NE",
                "Zip" : "20011",
                "City" : "Washington",
                "State" : "DC"
              }
            },
            {
              "LineCode3" : null,
              "Code" : "E07",
              "LineCode1" : "GR",
              "Lat" : 38.954931000000002,
              "StationTogether1" : "",
              "Lon" : -76.969881000000001,
              "LineCode4" : null,
              "LineCode2" : null,
              "Name" : "West Hyattsville",
              "StationTogether2" : "",
              "Address" : {
                "Street" : "2700 Hamilton St.",
                "Zip" : "20782",
                "City" : "Hyattsville",
                "State" : "MD"
              }
            },
            {
              "LineCode3" : null,
              "Code" : "E08",
              "LineCode1" : "GR",
              "Lat" : 38.965276000000003,
              "StationTogether1" : "",
              "Lon" : -76.956181999999998,
              "LineCode4" : null,
              "LineCode2" : null,
              "Name" : "Prince George's Plaza",
              "StationTogether2" : "",
              "Address" : {
                "Street" : "3575 East West Highway",
                "Zip" : "20782",
                "City" : "Hyattsville",
                "State" : "MD"
              }
            },
            {
              "LineCode3" : null,
              "Code" : "E09",
              "LineCode1" : "GR",
              "Lat" : 38.978523000000003,
              "StationTogether1" : "",
              "Lon" : -76.928432000000001,
              "LineCode4" : null,
              "LineCode2" : null,
              "Name" : "College Park-U of Md",
              "StationTogether2" : "",
              "Address" : {
                "Street" : "4931 Calvert Road",
                "Zip" : "20740",
                "City" : "College Park",
                "State" : "MD"
              }
            },
            {
              "LineCode3" : null,
              "Code" : "E10",
              "LineCode1" : "GR",
              "Lat" : 39.011035999999997,
              "StationTogether1" : "",
              "Lon" : -76.911361999999997,
              "LineCode4" : null,
              "LineCode2" : null,
              "Name" : "Greenbelt",
              "StationTogether2" : "",
              "Address" : {
                "Street" : "5717 Greenbelt Metro Drive",
                "Zip" : "20740",
                "City" : "Greenbelt",
                "State" : "MD"
              }
            },
            {
              "LineCode3" : null,
              "Code" : "F01",
              "LineCode1" : "GR",
              "Lat" : 38.898339999999997,
              "StationTogether1" : "B01",
              "Lon" : -77.021850999999998,
              "LineCode4" : null,
              "LineCode2" : "YL",
              "Name" : "Gallery Pl-Chinatown",
              "StationTogether2" : "",
              "Address" : {
                "Street" : "630 H St. NW",
                "Zip" : "20001",
                "City" : "Washington",
                "State" : "DC"
              }
            },
            {
              "LineCode3" : null,
              "Code" : "F02",
              "LineCode1" : "GR",
              "Lat" : 38.893892999999998,
              "StationTogether1" : "",
              "Lon" : -77.021901999999997,
              "LineCode4" : null,
              "LineCode2" : "YL",
              "Name" : "Archives-Navy Memorial-Penn Quarter",
              "StationTogether2" : "",
              "Address" : {
                "Street" : "701 Pennsylvania Avenue NW",
                "Zip" : "20004",
                "City" : "Washington",
                "State" : "DC"
              }
            },
            {
              "LineCode3" : null,
              "Code" : "F03",
              "LineCode1" : "GR",
              "Lat" : 38.884774999999998,
              "StationTogether1" : "D03",
              "Lon" : -77.021963999999997,
              "LineCode4" : null,
              "LineCode2" : "YL",
              "Name" : "L'Enfant Plaza",
              "StationTogether2" : "",
              "Address" : {
                "Street" : "600 Maryland Avenue SW",
                "Zip" : "20024",
                "City" : "Washington",
                "State" : "DC"
              }
            },
            {
              "LineCode3" : null,
              "Code" : "F04",
              "LineCode1" : "GR",
              "Lat" : 38.876221000000001,
              "StationTogether1" : "",
              "Lon" : -77.017491000000007,
              "LineCode4" : null,
              "LineCode2" : null,
              "Name" : "Waterfront",
              "StationTogether2" : "",
              "Address" : {
                "Street" : "399 M Street SW",
                "Zip" : "20024",
                "City" : "Washington",
                "State" : "DC"
              }
            },
            {
              "LineCode3" : null,
              "Code" : "F05",
              "LineCode1" : "GR",
              "Lat" : 38.876587999999998,
              "StationTogether1" : "",
              "Lon" : -77.005086000000006,
              "LineCode4" : null,
              "LineCode2" : null,
              "Name" : "Navy Yard-Ballpark",
              "StationTogether2" : "",
              "Address" : {
                "Street" : "200 M Street SE",
                "Zip" : "20003",
                "City" : "Washington",
                "State" : "DC"
              }
            },
            {
              "LineCode3" : null,
              "Code" : "F06",
              "LineCode1" : "GR",
              "Lat" : 38.862071999999998,
              "StationTogether1" : "",
              "Lon" : -76.995648000000003,
              "LineCode4" : null,
              "LineCode2" : null,
              "Name" : "Anacostia",
              "StationTogether2" : "",
              "Address" : {
                "Street" : "1101 Howard Road SE",
                "Zip" : "20020",
                "City" : "Washington",
                "State" : "DC"
              }
            },
            {
              "LineCode3" : null,
              "Code" : "F07",
              "LineCode1" : "GR",
              "Lat" : 38.845334000000001,
              "StationTogether1" : "",
              "Lon" : -76.988169999999997,
              "LineCode4" : null,
              "LineCode2" : null,
              "Name" : "Congress Heights",
              "StationTogether2" : "",
              "Address" : {
                "Street" : "1290 Alabama Avenue SE",
                "Zip" : "20020",
                "City" : "Washington",
                "State" : "DC"
              }
            },
            {
              "LineCode3" : null,
              "Code" : "F08",
              "LineCode1" : "GR",
              "Lat" : 38.840974000000003,
              "StationTogether1" : "",
              "Lon" : -76.975359999999995,
              "LineCode4" : null,
              "LineCode2" : null,
              "Name" : "Southern Avenue",
              "StationTogether2" : "",
              "Address" : {
                "Street" : "1411 Southern Avenue",
                "Zip" : "20748",
                "City" : "Temple Hills",
                "State" : "MD"
              }
            },
            {
              "LineCode3" : null,
              "Code" : "F09",
              "LineCode1" : "GR",
              "Lat" : 38.851187000000003,
              "StationTogether1" : "",
              "Lon" : -76.956564999999998,
              "LineCode4" : null,
              "LineCode2" : null,
              "Name" : "Naylor Road",
              "StationTogether2" : "",
              "Address" : {
                "Street" : "3101 Branch Avenue",
                "Zip" : "20748",
                "City" : "Temple Hills",
                "State" : "MD"
              }
            },
            {
              "LineCode3" : null,
              "Code" : "F10",
              "LineCode1" : "GR",
              "Lat" : 38.843890999999999,
              "StationTogether1" : "",
              "Lon" : -76.932022000000003,
              "LineCode4" : null,
              "LineCode2" : null,
              "Name" : "Suitland",
              "StationTogether2" : "",
              "Address" : {
                "Street" : "4500 Silver Hill Road",
                "Zip" : "20746",
                "City" : "Suitland",
                "State" : "MD"
              }
            },
            {
              "LineCode3" : null,
              "Code" : "F11",
              "LineCode1" : "GR",
              "Lat" : 38.826994999999997,
              "StationTogether1" : "",
              "Lon" : -76.912133999999995,
              "LineCode4" : null,
              "LineCode2" : null,
              "Name" : "Branch Ave",
              "StationTogether2" : "",
              "Address" : {
                "Street" : "4704 Old Soper Road",
                "Zip" : "20746",
                "City" : "Suitland",
                "State" : "MD"
              }
            },
            {
              "LineCode3" : null,
              "Code" : "G01",
              "LineCode1" : "BL",
              "Lat" : 38.890487999999998,
              "StationTogether1" : "",
              "Lon" : -76.938291000000007,
              "LineCode4" : null,
              "LineCode2" : "SV",
              "Name" : "Benning Road",
              "StationTogether2" : "",
              "Address" : {
                "Street" : "4500 Benning Road",
                "Zip" : "20019",
                "City" : "Washington",
                "State" : "DC"
              }
            },
            {
              "LineCode3" : null,
              "Code" : "G02",
              "LineCode1" : "BL",
              "Lat" : 38.889757000000003,
              "StationTogether1" : "",
              "Lon" : -76.913381999999999,
              "LineCode4" : null,
              "LineCode2" : "SV",
              "Name" : "Capitol Heights",
              "StationTogether2" : "",
              "Address" : {
                "Street" : "133 Central Avenue",
                "Zip" : "20743",
                "City" : "Capitol Heights",
                "State" : "MD"
              }
            },
            {
              "LineCode3" : null,
              "Code" : "G03",
              "LineCode1" : "BL",
              "Lat" : 38.886713,
              "StationTogether1" : "",
              "Lon" : -76.893591999999998,
              "LineCode4" : null,
              "LineCode2" : "SV",
              "Name" : "Addison Road-Seat Pleasant",
              "StationTogether2" : "",
              "Address" : {
                "Street" : "100 Addison Road S.",
                "Zip" : "20743",
                "City" : "Capitol Heights",
                "State" : "MD"
              }
            },
            {
              "LineCode3" : null,
              "Code" : "G04",
              "LineCode1" : "BL",
              "Lat" : 38.891300000000001,
              "StationTogether1" : "",
              "Lon" : -76.868200000000002,
              "LineCode4" : null,
              "LineCode2" : "SV",
              "Name" : "Morgan Boulevard",
              "StationTogether2" : "",
              "Address" : {
                "Street" : "300 Garrett Morgan Blvd.",
                "Zip" : "20785",
                "City" : "Landover",
                "State" : "MD"
              }
            },
            {
              "LineCode3" : null,
              "Code" : "G05",
              "LineCode1" : "BL",
              "Lat" : 38.900799999999997,
              "StationTogether1" : "",
              "Lon" : -76.844899999999996,
              "LineCode4" : null,
              "LineCode2" : "SV",
              "Name" : "Largo Town Center",
              "StationTogether2" : "",
              "Address" : {
                "Street" : "Largo Town Center 9000 Lottsford Road",
                "Zip" : "20774",
                "City" : "Largo",
                "State" : "MD"
              }
            },
            {
              "LineCode3" : null,
              "Code" : "J02",
              "LineCode1" : "BL",
              "Lat" : 38.799193000000002,
              "StationTogether1" : "",
              "Lon" : -77.129407,
              "LineCode4" : null,
              "LineCode2" : null,
              "Name" : "Van Dorn Street",
              "StationTogether2" : "",
              "Address" : {
                "Street" : "5690 Eisenhower Avenue",
                "Zip" : "22310",
                "City" : "Alexandria",
                "State" : "VA"
              }
            },
            {
              "LineCode3" : null,
              "Code" : "J03",
              "LineCode1" : "BL",
              "Lat" : 38.766128999999999,
              "StationTogether1" : "",
              "Lon" : -77.168796999999998,
              "LineCode4" : null,
              "LineCode2" : null,
              "Name" : "Franconia-Springfield",
              "StationTogether2" : "",
              "Address" : {
                "Street" : "6880 Frontier Drive",
                "Zip" : "22150",
                "City" : "Springfield",
                "State" : "VA"
              }
            },
            {
              "LineCode3" : null,
              "Code" : "K01",
              "LineCode1" : "OR",
              "Lat" : 38.891499000000003,
              "StationTogether1" : "",
              "Lon" : -77.083910000000003,
              "LineCode4" : null,
              "LineCode2" : "SV",
              "Name" : "Court House",
              "StationTogether2" : "",
              "Address" : {
                "Street" : "2100 Wilson Blvd",
                "Zip" : "22201",
                "City" : "Arlington",
                "State" : "VA"
              }
            },
            {
              "LineCode3" : null,
              "Code" : "K02",
              "LineCode1" : "OR",
              "Lat" : 38.886372999999999,
              "StationTogether1" : "",
              "Lon" : -77.096963000000002,
              "LineCode4" : null,
              "LineCode2" : "SV",
              "Name" : "Clarendon",
              "StationTogether2" : "",
              "Address" : {
                "Street" : "3100 Wilson Blvd",
                "Zip" : "22201",
                "City" : "Arlington",
                "State" : "VA"
              }
            },
            {
              "LineCode3" : null,
              "Code" : "K03",
              "LineCode1" : "OR",
              "Lat" : 38.883310000000002,
              "StationTogether1" : "",
              "Lon" : -77.104266999999993,
              "LineCode4" : null,
              "LineCode2" : "SV",
              "Name" : "Virginia Square-GMU",
              "StationTogether2" : "",
              "Address" : {
                "Street" : "3600 Fairfax Drive",
                "Zip" : "22201",
                "City" : "Arlington",
                "State" : "VA"
              }
            },
            {
              "LineCode3" : null,
              "Code" : "K04",
              "LineCode1" : "OR",
              "Lat" : 38.882071000000003,
              "StationTogether1" : "",
              "Lon" : -77.111845000000002,
              "LineCode4" : null,
              "LineCode2" : "SV",
              "Name" : "Ballston-MU",
              "StationTogether2" : "",
              "Address" : {
                "Street" : "4230 Fairfax Drive",
                "Zip" : "22201",
                "City" : "Arlington",
                "State" : "VA"
              }
            },
            {
              "LineCode3" : null,
              "Code" : "K05",
              "LineCode1" : "OR",
              "Lat" : 38.885840999999999,
              "StationTogether1" : "",
              "Lon" : -77.157177000000004,
              "LineCode4" : null,
              "LineCode2" : "SV",
              "Name" : "East Falls Church",
              "StationTogether2" : "",
              "Address" : {
                "Street" : "2001 N. Sycamore St.",
                "Zip" : "22205",
                "City" : "Arlington",
                "State" : "VA"
              }
            },
            {
              "LineCode3" : null,
              "Code" : "K06",
              "LineCode1" : "OR",
              "Lat" : 38.900669999999998,
              "StationTogether1" : "",
              "Lon" : -77.189393999999993,
              "LineCode4" : null,
              "LineCode2" : null,
              "Name" : "West Falls Church-VT\/UVA",
              "StationTogether2" : "",
              "Address" : {
                "Street" : "7040 Haycock Road",
                "Zip" : "22043",
                "City" : "Falls Church",
                "State" : "VA"
              }
            },
            {
              "LineCode3" : null,
              "Code" : "K07",
              "LineCode1" : "OR",
              "Lat" : 38.883015,
              "StationTogether1" : "",
              "Lon" : -77.228938999999997,
              "LineCode4" : null,
              "LineCode2" : null,
              "Name" : "Dunn Loring-Merrifield",
              "StationTogether2" : "",
              "Address" : {
                "Street" : "2700 Gallows Road",
                "Zip" : "22180",
                "City" : "Vienna",
                "State" : "VA"
              }
            },
            {
              "LineCode3" : null,
              "Code" : "K08",
              "LineCode1" : "OR",
              "Lat" : 38.877693000000001,
              "StationTogether1" : "",
              "Lon" : -77.271562000000003,
              "LineCode4" : null,
              "LineCode2" : null,
              "Name" : "Vienna\/Fairfax-GMU",
              "StationTogether2" : "",
              "Address" : {
                "Street" : "9550 Saintsbury Drive",
                "Zip" : "22031",
                "City" : "Fairfax",
                "State" : "VA"
              }
            },
            {
              "LineCode3" : null,
              "Code" : "N01",
              "LineCode1" : "SV",
              "Lat" : 38.924478000000001,
              "StationTogether1" : "",
              "Lon" : -77.210166999999998,
              "LineCode4" : null,
              "LineCode2" : null,
              "Name" : "McLean",
              "StationTogether2" : "",
              "Address" : {
                "Street" : "1824 Dolley Madison Boulevard",
                "Zip" : "22102",
                "City" : "McLean",
                "State" : "VA"
              }
            },
            {
              "LineCode3" : null,
              "Code" : "N02",
              "LineCode1" : "SV",
              "Lat" : 38.920056000000002,
              "StationTogether1" : "",
              "Lon" : -77.223314000000002,
              "LineCode4" : null,
              "LineCode2" : null,
              "Name" : "Tysons Corner",
              "StationTogether2" : "",
              "Address" : {
                "Street" : "1943 Chain Bridge Road",
                "Zip" : "22102",
                "City" : "McLean",
                "State" : "VA"
              }
            },
            {
              "LineCode3" : null,
              "Code" : "N03",
              "LineCode1" : "SV",
              "Lat" : 38.919749000000003,
              "StationTogether1" : "",
              "Lon" : -77.235191999999998,
              "LineCode4" : null,
              "LineCode2" : null,
              "Name" : "Greensboro",
              "StationTogether2" : "",
              "Address" : {
                "Street" : "8305 Leesburg Pike",
                "Zip" : "22182",
                "City" : "Vienna",
                "State" : "VA"
              }
            },
            {
              "LineCode3" : null,
              "Code" : "N04",
              "LineCode1" : "SV",
              "Lat" : 38.929273000000002,
              "StationTogether1" : "",
              "Lon" : -77.241988000000006,
              "LineCode4" : null,
              "LineCode2" : null,
              "Name" : "Spring Hill",
              "StationTogether2" : "",
              "Address" : {
                "Street" : "1576 Spring Hill Road",
                "Zip" : "22182",
                "City" : "Vienna",
                "State" : "VA"
              }
            },
            {
              "LineCode3" : null,
              "Code" : "N06",
              "LineCode1" : "SV",
              "Lat" : 38.947752999999999,
              "StationTogether1" : "",
              "Lon" : -77.340179000000006,
              "LineCode4" : null,
              "LineCode2" : null,
              "Name" : "Wiehle-Reston East",
              "StationTogether2" : "",
              "Address" : {
                "Street" : "1862 Wiehle Avenue",
                "Zip" : "20190",
                "City" : "Reston",
                "State" : "VA"
              }
            }
          ]
        },
        "status" : 200
      }
    }
  ]
}
